[
  { "name": "Third Wave Coffee", "neighborhood": "Indiranagar", "lat": 12.9719, "lng": 77.6412, "photo": "https://images.unsplash.com/photo-1554118811-1e0d58224f24?w=600", "vibe": "Bright, minimalist, serious about pour-overs. Work-friendly until 4pm." },
  { "name": "Blue Tokai", "neighborhood": "Koramangala", "lat": 12.9352, "lng": 77.6245, "photo": "https://images.unsplash.com/photo-1445116572660-236099ec97a0?w=600", "vibe": "Single-origin nerds gather here. Expect a queue and a playlist you'll Shazam." },
  { "name": "Matteo Coffea", "neighborhood": "Church Street", "lat": 12.9756, "lng": 77.6068, "photo": "https://images.unsplash.com/photo-1442512595331-e89e73853f31?w=600", "vibe": "Old-Bangalore charm on a bustling street. Great for people-watching." },
  { "name": "Dyu Art Cafe", "neighborhood": "Koramangala", "lat": 12.9279, "lng": 77.6271, "photo": "https://images.unsplash.com/photo-1559305616-3f99cd43e353?w=600", "vibe": "Tucked-away garden seating. Artsy, quiet, book-club energy." },
  { "name": "Cafe Thulp", "neighborhood": "HSR Layout", "lat": 12.9116, "lng": 77.6473, "photo": "https://images.unsplash.com/photo-1509042239860-f550ce710b93?w=600", "vibe": "Burgers bigger than your face. Loud, fun, plan on a nap after." },
  { "name": "Subko Coffee", "neighborhood": "Indiranagar", "lat": 12.9783, "lng": 77.6408, "photo": "https://images.unsplash.com/photo-1501339847302-ac426a4a7cbb?w=600", "vibe": "Roastery vibes. Take the tasting flight, pretend you understand notes." },
  { "name": "Araku Coffee", "neighborhood": "Lavelle Road", "lat": 12.9718, "lng": 77.5946, "photo": "https://images.unsplash.com/photo-1453614512568-c4024d13c247?w=600", "vibe": "Tribal-grown beans, warm wood interiors. Feels like a hug." },
  { "name": "Glen's Bakehouse", "neighborhood": "Indiranagar", "lat": 12.9698, "lng": 77.6414, "photo": "https://images.unsplash.com/photo-1521017432531-fbd92d768814?w=600", "vibe": "Birthday cakes and brunch plates. Always packed, always worth it." },
  { "name": "Cafe Max", "neighborhood": "Koramangala", "lat": 12.9345, "lng": 77.6198, "photo": "https://images.unsplash.com/photo-1511920170033-f8396924c348?w=600", "vibe": "No-frills Euro café. Cheap, reliable, great for catching up." },
  { "name": "Church Street Social", "neighborhood": "Church Street", "lat": 12.9746, "lng": 77.6085, "photo": "https://images.unsplash.com/photo-1538488881038-e252a119ace7?w=600", "vibe": "Industrial-chic pub-café hybrid. Loud after sundown, pick a corner." },
  { "name": "Koshy's", "neighborhood": "St Marks Road", "lat": 12.9736, "lng": 77.6020, "photo": "https://images.unsplash.com/photo-1554118811-1e0d58224f24?w=600", "vibe": "Since 1940. Writers, journalists, filter coffee. Time-machine Bangalore." },
  { "name": "Toit Brewpub", "neighborhood": "Indiranagar", "lat": 12.9716, "lng": 77.6412, "photo": "https://images.unsplash.com/photo-1559305616-3f99cd43e353?w=600", "vibe": "Craft beer institution. Weekends are a war zone, go on a Tuesday." },
  { "name": "Airlines Hotel", "neighborhood": "Lavelle Road", "lat": 12.9725, "lng": 77.5958, "photo": "https://images.unsplash.com/photo-1445116572660-236099ec97a0?w=600", "vibe": "Iconic open-air parking-lot café. Masala dosas under the trees." },
  { "name": "Cafe Noir", "neighborhood": "UB City", "lat": 12.9719, "lng": 77.5959, "photo": "https://images.unsplash.com/photo-1442512595331-e89e73853f31?w=600", "vibe": "Mall-fancy French café. Date-night safe bet, good desserts." },
  { "name": "Rangoli Cafe", "neighborhood": "Jayanagar", "lat": 12.9250, "lng": 77.5938, "photo": "https://images.unsplash.com/photo-1501339847302-ac426a4a7cbb?w=600", "vibe": "South Indian comfort, local crowd. Quick, cheap, exactly right." },
  { "name": "Filter Coffee Co", "neighborhood": "Jayanagar", "lat": 12.9296, "lng": 77.5831, "photo": "https://images.unsplash.com/photo-1453614512568-c4024d13c247?w=600", "vibe": "The name does the heavy lifting. Tiny, strong, traditional." },
  { "name": "The Hole In The Wall", "neighborhood": "Koramangala", "lat": 12.9388, "lng": 77.6270, "photo": "https://images.unsplash.com/photo-1509042239860-f550ce710b93?w=600", "vibe": "Breakfast-all-day chaos. Order the eggs benedict, trust the process." },
  { "name": "Smoke House Deli", "neighborhood": "Indiranagar", "lat": 12.9785, "lng": 77.6400, "photo": "https://images.unsplash.com/photo-1538488881038-e252a119ace7?w=600", "vibe": "Chalk-wall aesthetic, reliable menu. Good for big-group indecision." },
  { "name": "Cafe Felix", "neighborhood": "Whitefield", "lat": 12.9698, "lng": 77.7500, "photo": "https://images.unsplash.com/photo-1521017432531-fbd92d768814?w=600", "vibe": "Tech-park escape hatch. Quiet-ish, laptops welcome until it fills up." },
  { "name": "Black Rabbit", "neighborhood": "HSR Layout", "lat": 12.9108, "lng": 77.6412, "photo": "https://images.unsplash.com/photo-1554118811-1e0d58224f24?w=600", "vibe": "Cocktail bar pretending to be a café. Low lights, long conversations." }
]
